{
   "results" : [
      {
         "address_components" : [
            {
               "long_name" : "Ontario",
               "short_name" : "Ontario",
               "types" : [ "locality", "political" ]
            },
            {
               "long_name" : "San Bernardino County",
               "short_name" : "San Bernardino County",
               "types" : [ "administrative_area_level_2", "political" ]
            },
            {
               "long_name" : "California",
               "short_name" : "CA",
               "types" : [ "administrative_area_level_1", "political" ]
            },
            {
               "long_name" : "United States",
               "short_name" : "US",
               "types" : [ "country", "political" ]
            }
         ],
         "formatted_address" : "Ontario, CA, USA",
         "geometry" : {
            "bounds" : {
               "northeast" : {
                  "lat" : 34.0928101,
                  "lng" : -117.5242779
               },
               "southwest" : {
                  "lat" : 33.9752129,
                  "lng" : -117.683588
               }
            },
            "location" : {
               "lat" : 34.0633443,
               "lng" : -117.6508876
            },
            "location_type" : "APPROXIMATE",
            "viewport" : {
               "northeast" : {
                  "lat" : 34.0928101,
                  "lng" : -117.5242779
               },
               "southwest" : {
                  "lat" : 33.9752129,
                  "lng" : -117.683588
               }
            }
         },
         "partial_match" : true,
         "place_id" : "ChIJe2Ld6ts0w4ARkDFY-VrjAwc",
         "types" : [ "locality", "political" ]
      },
      {
         "address_components" : [
            {
               "long_name" : "Ontario",
               "short_name" : "Ontario",
               "types" : [ "locality", "political" ]
            },
            {
               "long_name" : "Malheur County",
               "short_name" : "Malheur County",
               "types" : [ "administrative_area_level_2", "political" ]
            },
            {
               "long_name" : "Oregon",
               "short_name" : "OR",
               "types" : [ "administrative_area_level_1", "political" ]
            },
            {
               "long_name" : "United States",
               "short_name" : "US",
               "types" : [ "country", "political" ]
            },
            {
               "long_name" : "97914",
               "short_name" : "97914",
               "types" : [ "postal_code" ]
            }
         ],
         "formatted_address" : "Ontario, OR 97914, USA",
         "geometry" : {
            "bounds" : {
               "northeast" : {
                  "lat" : 44.052505,
                  "lng" : -116.9355118
               },
               "southwest" : {
                  "lat" : 44.0101019,
                  "lng" : -117.019917
               }
            },
            "location" : {
               "lat" : 44.0265525,
               "lng" : -116.9629378
            },
            "location_type" : "APPROXIMATE",
            "viewport" : {
               "northeast" : {
                  "lat" : 44.052505,
                  "lng" : -116.9355118
               },
               "southwest" : {
                  "lat" : 44.0101019,
                  "lng" : -117.019917
               }
            }
         },
         "partial_match" : true,
         "place_id" : "ChIJYWfLqquPr1QRxVeUwG7-sUI",
         "types" : [ "locality", "political" ]
      }
   ],
   "status" : "OK"
}
